{
  "cities": [
    {
      "name": "北京",
      "province": "北京市",
      "lat": 39.9042,
      "lon": 116.4074,
      "population": 21540000,
      "type": "capital"
    },
    {
      "name": "上海",
      "province": "上海市",
      "lat": 31.2304,
      "lon": 121.4737,
      "population": 24280000,
      "type": "municipality"
    },
    {
      "name": "广州",
      "province": "广东省",
      "lat": 23.1291,
      "lon": 113.2644,
      "population": 15300000,
      "type": "city"
    },
    {
      "name": "深圳",
      "province": "广东省",
      "lat": 22.5431,
      "lon": 114.0579,
      "population": 17560000,
      "type": "city"
    },
    {
      "name": "成都",
      "province": "四川省",
      "lat": 30.5728,
      "lon": 104.0668,
      "population": 20930000,
      "type": "city"
    },
    {
      "name": "杭州",
      "province": "浙江省",
      "lat": 30.2741,
      "lon": 120.1551,
      "population": 12200000,
      "type": "city"
    },
    {
      "name": "武汉",
      "province": "湖北省",
      "lat": 30.5928,
      "lon": 114.3055,
      "population": 11210000,
      "type": "city"
    },
    {
      "name": "西安",
      "province": "陕西省",
      "lat": 34.3416,
      "lon": 108.9398,
      "population": 12950000,
      "type": "city"
    },
    {
      "name": "南京",
      "province": "江苏省",
      "lat": 32.0603,
      "lon": 118.7969,
      "population": 9420000,
      "type": "city"
    },
    {
      "name": "重庆",
      "province": "重庆市",
      "lat": 29.4316,
      "lon": 106.9123,
      "population": 32120000,
      "type": "municipality"
    },
    {
      "name": "天津",
      "province": "天津市",
      "lat": 39.0842,
      "lon": 117.2009,
      "population": 15620000,
      "type": "municipality"
    },
    {
      "name": "苏州",
      "province": "江苏省",
      "lat": 31.2989,
      "lon": 120.5853,
      "population": 12750000,
      "type": "city"
    },
    {
      "name": "长沙",
      "province": "湖南省",
      "lat": 28.2282,
      "lon": 112.9388,
      "population": 10040000,
      "type": "city"
    },
    {
      "name": "郑州",
      "province": "河南省",
      "lat": 34.7466,
      "lon": 113.6253,
      "population": 12600000,
      "type": "city"
    },
    {
      "name": "沈阳",
      "province": "辽宁省",
      "lat": 41.8057,
      "lon": 123.4315,
      "population": 9070000,
      "type": "city"
    },
    {
      "name": "哈尔滨",
      "province": "黑龙江省",
      "lat": 45.8038,
      "lon": 126.5350,
      "population": 9510000,
      "type": "city"
    },
    {
      "name": "昆明",
      "province": "云南省",
      "lat": 25.0389,
      "lon": 102.7183,
      "population": 8460000,
      "type": "city"
    },
    {
      "name": "济南",
      "province": "山东省",
      "lat": 36.6512,
      "lon": 117.1201,
      "population": 9200000,
      "type": "city"
    },
    {
      "name": "青岛",
      "province": "山东省",
      "lat": 36.0671,
      "lon": 120.3826,
      "population": 10070000,
      "type": "city"
    },
    {
      "name": "大连",
      "province": "辽宁省",
      "lat": 38.9140,
      "lon": 121.6147,
      "population": 7450000,
      "type": "city"
    },
    {
      "name": "厦门",
      "province": "福建省",
      "lat": 24.4798,
      "lon": 118.0894,
      "population": 5160000,
      "type": "city"
    },
    {
      "name": "宁波",
      "province": "浙江省",
      "lat": 29.8683,
      "lon": 121.5440,
      "population": 9400000,
      "type": "city"
    },
    {
      "name": "乌鲁木齐",
      "province": "新疆维吾尔自治区",
      "lat": 43.8256,
      "lon": 87.6168,
      "population": 4050000,
      "type": "city"
    },
    {
      "name": "拉萨",
      "province": "西藏自治区",
      "lat": 29.6500,
      "lon": 91.1000,
      "population": 900000,
      "type": "city"
    },
    {
      "name": "兰州",
      "province": "甘肃省",
      "lat": 36.0611,
      "lon": 103.8343,
      "population": 4350000,
      "type": "city"
    },
    {
      "name": "贵阳",
      "province": "贵州省",
      "lat": 26.6470,
      "lon": 106.6302,
      "population": 6100000,
      "type": "city"
    },
    {
      "name": "太原",
      "province": "山西省",
      "lat": 37.8706,
      "lon": 112.5489,
      "population": 5300000,
      "type": "city"
    },
    {
      "name": "南昌",
      "province": "江西省",
      "lat": 28.6820,
      "lon": 115.8579,
      "population": 6250000,
      "type": "city"
    },
    {
      "name": "合肥",
      "province": "安徽省",
      "lat": 31.8206,
      "lon": 117.2272,
      "population": 9370000,
      "type": "city"
    },
    {
      "name": "南宁",
      "province": "广西壮族自治区",
      "lat": 22.8170,
      "lon": 108.3665,
      "population": 8740000,
      "type": "city"
    },
    {
      "name": "海口",
      "province": "海南省",
      "lat": 20.0440,
      "lon": 110.1999,
      "population": 2870000,
      "type": "city"
    },
    {
      "name": "三亚",
      "province": "海南省",
      "lat": 18.2524,
      "lon": 109.5119,
      "population": 1030000,
      "type": "city"
    },
    {
      "name": "西宁",
      "province": "青海省",
      "lat": 36.6171,
      "lon": 101.7782,
      "population": 2460000,
      "type": "city"
    },
    {
      "name": "银川",
      "province": "宁夏回族自治区",
      "lat": 38.4681,
      "lon": 106.2731,
      "population": 2850000,
      "type": "city"
    },
    {
      "name": "呼和浩特",
      "province": "内蒙古自治区",
      "lat": 40.8414,
      "lon": 111.7519,
      "population": 3440000,
      "type": "city"
    }
  ],
  "provinces": [
    {
      "name": "北京市",
      "capital": "北京",
      "lat": 39.9042,
      "lon": 116.4074,
      "area": 16410
    },
    {
      "name": "上海市",
      "capital": "上海",
      "lat": 31.2304,
      "lon": 121.4737,
      "area": 6340
    },
    {
      "name": "天津市",
      "capital": "天津",
      "lat": 39.0842,
      "lon": 117.2009,
      "area": 11916
    },
    {
      "name": "重庆市",
      "capital": "重庆",
      "lat": 29.4316,
      "lon": 106.9123,
      "area": 82403
    },
    {
      "name": "广东省",
      "capital": "广州",
      "lat": 23.3790,
      "lon": 113.7633,
      "area": 179800
    },
    {
      "name": "江苏省",
      "capital": "南京",
      "lat": 32.0603,
      "lon": 118.7969,
      "area": 107200
    },
    {
      "name": "山东省",
      "capital": "济南",
      "lat": 36.6512,
      "lon": 117.1201,
      "area": 157900
    },
    {
      "name": "河南省",
      "capital": "郑州",
      "lat": 34.7466,
      "lon": 113.6253,
      "area": 167000
    },
    {
      "name": "四川省",
      "capital": "成都",
      "lat": 30.5728,
      "lon": 104.0668,
      "area": 486000
    },
    {
      "name": "湖北省",
      "capital": "武汉",
      "lat": 30.5928,
      "lon": 114.3055,
      "area": 185900
    },
    {
      "name": "湖南省",
      "capital": "长沙",
      "lat": 28.2282,
      "lon": 112.9388,
      "area": 211800
    },
    {
      "name": "浙江省",
      "capital": "杭州",
      "lat": 30.2741,
      "lon": 120.1551,
      "area": 105500
    },
    {
      "name": "河北省",
      "capital": "石家庄",
      "lat": 38.0428,
      "lon": 114.5149,
      "area": 188800
    },
    {
      "name": "福建省",
      "capital": "福州",
      "lat": 26.0745,
      "lon": 119.2965,
      "area": 121400
    },
    {
      "name": "辽宁省",
      "capital": "沈阳",
      "lat": 41.8057,
      "lon": 123.4315,
      "area": 148000
    },
    {
      "name": "黑龙江省",
      "capital": "哈尔滨",
      "lat": 45.8038,
      "lon": 126.5350,
      "area": 473000
    },
    {
      "name": "吉林省",
      "capital": "长春",
      "lat": 43.8868,
      "lon": 125.3245,
      "area": 187400
    },
    {
      "name": "山西省",
      "capital": "太原",
      "lat": 37.8706,
      "lon": 112.5489,
      "area": 156000
    },
    {
      "name": "陕西省",
      "capital": "西安",
      "lat": 34.3416,
      "lon": 108.9398,
      "area": 205800
    },
    {
      "name": "安徽省",
      "capital": "合肥",
      "lat": 31.8206,
      "lon": 117.2272,
      "area": 140100
    },
    {
      "name": "江西省",
      "capital": "南昌",
      "lat": 28.6820,
      "lon": 115.8579,
      "area": 166900
    },
    {
      "name": "云南省",
      "capital": "昆明",
      "lat": 25.0389,
      "lon": 102.7183,
      "area": 394000
    },
    {
      "name": "贵州省",
      "capital": "贵阳",
      "lat": 26.6470,
      "lon": 106.6302,
      "area": 176100
    },
    {
      "name": "甘肃省",
      "capital": "兰州",
      "lat": 36.0611,
      "lon": 103.8343,
      "area": 425800
    },
    {
      "name": "青海省",
      "capital": "西宁",
      "lat": 36.6171,
      "lon": 101.7782,
      "area": 720000
    },
    {
      "name": "广西壮族自治区",
      "capital": "南宁",
      "lat": 22.8170,
      "lon": 108.3665,
      "area": 237600
    },
    {
      "name": "内蒙古自治区",
      "capital": "呼和浩特",
      "lat": 40.8414,
      "lon": 111.7519,
      "area": 1183000
    },
    {
      "name": "西藏自治区",
      "capital": "拉萨",
      "lat": 29.6500,
      "lon": 91.1000,
      "area": 1202300
    },
    {
      "name": "宁夏回族自治区",
      "capital": "银川",
      "lat": 38.4681,
      "lon": 106.2731,
      "area": 66400
    },
    {
      "name": "新疆维吾尔自治区",
      "capital": "乌鲁木齐",
      "lat": 43.8256,
      "lon": 87.6168,
      "area": 1660000
    },
    {
      "name": "海南省",
      "capital": "海口",
      "lat": 20.0440,
      "lon": 110.1999,
      "area": 35400
    },
    {
      "name": "台湾省",
      "capital": "台北",
      "lat": 25.0330,
      "lon": 121.5654,
      "area": 36000
    }
  ],
  "rivers": [
    {
      "name": "长江",
      "length": 6300,
      "origin": "青藏高原",
      "mouth": "东海",
      "provinces": ["青海省", "西藏自治区", "四川省", "云南省", "重庆市", "湖北省", "湖南省", "江西省", "安徽省", "江苏省", "上海市"],
      "major_cities": ["重庆", "武汉", "南京", "上海"]
    },
    {
      "name": "黄河",
      "length": 5464,
      "origin": "巴颜喀拉山",
      "mouth": "渤海",
      "provinces": ["青海省", "四川省", "甘肃省", "宁夏回族自治区", "内蒙古自治区", "陕西省", "山西省", "河南省", "山东省"],
      "major_cities": ["兰州", "郑州", "济南"]
    },
    {
      "name": "珠江",
      "length": 2400,
      "origin": "云南省",
      "mouth": "南海",
      "provinces": ["云南省", "贵州省", "广西壮族自治区", "广东省"],
      "major_cities": ["广州", "深圳"]
    },
    {
      "name": "淮河",
      "length": 1000,
      "origin": "河南省",
      "mouth": "长江",
      "provinces": ["河南省", "安徽省", "江苏省"],
      "major_cities": []
    },
    {
      "name": "海河",
      "length": 1050,
      "origin": "山西省",
      "mouth": "渤海",
      "provinces": ["山西省", "河北省", "北京市", "天津市"],
      "major_cities": ["北京", "天津"]
    },
    {
      "name": "辽河",
      "length": 1430,
      "origin": "河北省",
      "mouth": "渤海",
      "provinces": ["河北省", "内蒙古自治区", "吉林省", "辽宁省"],
      "major_cities": ["沈阳"]
    },
    {
      "name": "松花江",
      "length": 1925,
      "origin": "长白山",
      "mouth": "黑龙江",
      "provinces": ["吉林省", "黑龙江省"],
      "major_cities": ["哈尔滨"]
    },
    {
      "name": "雅鲁藏布江",
      "length": 2057,
      "origin": "喜马拉雅山",
      "mouth": "孟加拉湾",
      "provinces": ["西藏自治区"],
      "major_cities": []
    }
  ],
  "mountains": [
    {
      "name": "喜马拉雅山脉",
      "peak": "珠穆朗玛峰",
      "height": 8848.86,
      "location": "西藏自治区",
      "lat": 27.9881,
      "lon": 86.9250
    },
    {
      "name": "昆仑山脉",
      "peak": "公格尔山",
      "height": 7649,
      "location": "新疆维吾尔自治区",
      "lat": 35.6167,
      "lon": 94.1833
    },
    {
      "name": "天山山脉",
      "peak": "托木尔峰",
      "height": 7443,
      "location": "新疆维吾尔自治区",
      "lat": 42.0333,
      "lon": 80.1167
    },
    {
      "name": "秦岭",
      "peak": "太白山",
      "height": 3771,
      "location": "陕西省",
      "lat": 33.9667,
      "lon": 107.7667
    },
    {
      "name": "大兴安岭",
      "peak": "黄岗梁",
      "height": 2029,
      "location": "内蒙古自治区",
      "lat": 50.9167,
      "lon": 121.4333
    },
    {
      "name": "太行山脉",
      "peak": "小五台山",
      "height": 2882,
      "location": "河北省",
      "lat": 39.9667,
      "lon": 115.0333
    },
    {
      "name": "武夷山脉",
      "peak": "黄岗山",
      "height": 2158,
      "location": "福建省",
      "lat": 27.8167,
      "lon": 117.6833
    },
    {
      "name": "南岭",
      "peak": "猫儿山",
      "height": 2142,
      "location": "广西壮族自治区",
      "lat": 25.0667,
      "lon": 110.4333
    },
    {
      "name": "横断山脉",
      "peak": "贡嘎山",
      "height": 7556,
      "location": "四川省",
      "lat": 29.5833,
      "lon": 101.8833
    },
    {
      "name": "长白山脉",
      "peak": "长白山",
      "height": 2691,
      "location": "吉林省",
      "lat": 41.9333,
      "lon": 128.0667
    }
  ],
  "landmarks": [
    {
      "name": "故宫",
      "city": "北京",
      "type": "historical",
      "lat": 39.9163,
      "lon": 116.3972
    },
    {
      "name": "长城",
      "city": "北京",
      "type": "historical",
      "lat": 40.4319,
      "lon": 116.5704
    },
    {
      "name": "西湖",
      "city": "杭州",
      "type": "scenic",
      "lat": 30.2444,
      "lon": 120.1378
    },
    {
      "name": "黄山",
      "city": "黄山",
      "type": "scenic",
      "lat": 30.1314,
      "lon": 118.1692
    },
    {
      "name": "泰山",
      "city": "泰安",
      "type": "scenic",
      "lat": 36.2586,
      "lon": 117.1011
    },
    {
      "name": "华山",
      "city": "华阴",
      "type": "scenic",
      "lat": 34.4886,
      "lon": 110.0886
    },
    {
      "name": "张家界",
      "city": "张家界",
      "type": "scenic",
      "lat": 29.1251,
      "lon": 110.4793
    },
    {
      "name": "九寨沟",
      "city": "阿坝",
      "type": "scenic",
      "lat": 33.1575,
      "lon": 103.9147
    },
    {
      "name": "兵马俑",
      "city": "西安",
      "type": "historical",
      "lat": 34.3841,
      "lon": 109.2785
    },
    {
      "name": "布达拉宫",
      "city": "拉萨",
      "type": "historical",
      "lat": 29.6579,
      "lon": 91.1173
    },
    {
      "name": "天坛",
      "city": "北京",
      "type": "historical",
      "lat": 39.8822,
      "lon": 116.4066
    },
    {
      "name": "颐和园",
      "city": "北京",
      "type": "scenic",
      "lat": 39.9998,
      "lon": 116.2754
    },
    {
      "name": "外滩",
      "city": "上海",
      "type": "scenic",
      "lat": 31.2403,
      "lon": 121.4906
    },
    {
      "name": "东方明珠",
      "city": "上海",
      "type": "landmark",
      "lat": 31.2397,
      "lon": 121.4997
    },
    {
      "name": "武侯祠",
      "city": "成都",
      "type": "historical",
      "lat": 30.6472,
      "lon": 104.0436
    },
    {
      "name": "都江堰",
      "city": "都江堰",
      "type": "historical",
      "lat": 31.0215,
      "lon": 103.6076
    },
    {
      "name": "大熊猫基地",
      "city": "成都",
      "type": "scenic",
      "lat": 30.7327,
      "lon": 104.1469
    },
    {
      "name": "鼓浪屿",
      "city": "厦门",
      "type": "scenic",
      "lat": 24.4464,
      "lon": 118.0666
    },
    {
      "name": "漓江",
      "city": "桂林",
      "type": "scenic",
      "lat": 25.2742,
      "lon": 110.2900
    },
    {
      "name": "日月潭",
      "city": "台湾",
      "type": "scenic",
      "lat": 23.8594,
      "lon": 120.9122
    }
  ]
}
